{
  "type": "FeatureCollection",
  "features": [
    {
      "type": "Feature",
      "geometry": {
        "type": "Point",
        "coordinates": [-84.430381, 33.762212]
      },
      "properties": {
        "name": "Feed My Lambs",
        "services": "Early childhood education program",
        "address": "1300 Joseph E. Boone Blvd.",
        "phone": "404-963-6804",
        "website": "www.feedmylambs.net/atlanta"
      }
    },
    {
      "type": "Feature",
      "geometry": {
        "type": "Point",
        "coordinates": [-84.414436, 33.751776]
      },
      "properties": {
        "name": "Magnolia Park Preschool",
        "services": "Early childhood education program for residents of Magnolia Park",
        "address": "60 Paschal St.",
        "phone": "404-523-3923",
      }
    },
    {
      "type": "Feature",
      "geometry": {
        "type": "Point",
        "coordinates": [-84.433649, 33.75806]
      },
      "proerties": {
        "name": "YMCA of Metropolitan Atlanta",
        "services": "Early childhood education programs, summer programs",
        "address": "569 MLK Jr. Dr. NW",
        "phone": "404-588-9622",
        "website": "www.ymcaatlanta.org"
      }
    },
    {
      "type": "Feature",
      "geometry": {
        "type": "Point",
        "coordinates": [-84.411969, 33.760804]
      },
      "properties": {
        "name": "Hollis Innovation Academy",
        "services": "STEM-certified primary and secondary school, PowerUp summer enrichment program",
        "address": "225 James P. Brawley Blvd.",
        "phone": "404-564-7749",
        "website": "www.atlantapublicschools.us/hollisinnovation"
      }
    },
    {
      "type": "Feature",
      "geometry": {
        "type": "Point",
        "coordinates": [-84.421836, 33.748374]
      },
      "properties": {
        "name": "M.A. Jones Elementary School",
        "services": "STEM-certified primary school, PowerUp summer enrichment program",
        "address": "1040 Fair St. SW",
        "phone": "404-802-3900",
        "website": "www.atlantapublicschools.us/jones"
      }
    },
    {
      "type": "Feature",
      "geometry": {
        "type": "Point",
        "coordinates": [-84.44125, 33.731121]
      },
      "properties": {
        "name": "TAG Elementary School",
        "services": "STEM-certified primary school, PowerUp summer enrichment program",
        "address": "1654 S. Alvarado Terr. SW",
        "phone": "404-802-8450",
        "website": "www.atlantapublicschools.us/TAG"
      }
    },
    {
      "type": "Feature",
      "geometry": {
        "type": "Point",
        "coordinates": [-84.422021, 33.734235],
      },
      "properties": {
        "name": "Brown Middle School",
        "services": "STEM-certified secondary school, PowerUp summer enrichment program",
        "address": "765 Peeples St. SW",
        "phone": "404-802-6800",
        "website": "www.atlantapublicschools.us/brown"
      }
    },
    {
      "type": "Feature",
      "geometry": {
        "type": "Point",
        "coordinates": [-84.4218, 33.753588],
      },
      "properties": {
        "name": "Booker T. Washington High School",
        "services": "Secondary school, 9th Grade Academy summer program",
        "address": "45 Whitehouse Dr. SW",
        "phone": "404-802-4600",
        "website": "www.atlantapublicschools.us/btw"
      }
    },
    {
      "type": "Feature",
      "geometry": {
        "type": "Point",
        "coordinates": [-84.422556, 33.764139],
      },
      "properties": {
        "name": "KIPP Ways Academy",
        "services": "Free, public charter middle school in West Atlanta",
        "address": "350 Temple St. NW",
        "phone": "404-475-1941",
        "website": "www.kippmetroatlanta.org"
      }
    },
    {
      "type": "Feature",
      "geometry": {
        "type": "Point",
        "coordinates": [-84.402896, 33.760764],
      },
      "properties": {
        "name": "Raising Expectations",
        "services": "Afterschool and youth development program",
        "address": "220 Northside Dr.",
        "phone": "678-768-4932",
        "website": "www.raisingexpectations.org"
      }
    },
    {
      "type": "Feature",
      "geometry": {
        "type": "Point",
        "coordinates": [-84.408037, 35.758182],
      },
      "properties": {
        "name": "Herndon's Choice Pre-Apprentice Barber Project",
        "services": "Afterschool and youth development program, job skills training for young men",
        "address": "128 Vine St. NW",
        "website": "www.facebook.com/pg/HerndonsChoicePreApprenticeshipBarberMentorProjec/about/"
      }
    },
    {
      "type": "Feature",
      "geometry": {
        "type": "Point",
        "coordinates": [-84.403075, 33.747822],
      },
      "properties": {
        "name": "Doc B Cares",
        "services": "Afterschool and youth development program, summer and sports programs offered",
        "address": "251 Walker St. SW",
        "phone": "404-694-9551",
        "website": "www.docbcares.org"
      }
    },
    {
      "type": "Feature",
      "geometry": {
        "type": "Point",
        "coordinates": [-84.411606, 33.76777],
      },
      "properties": {
        "name": "At-Promise Youth Center",
        "services": "Afterschool and youth development programs (visit center to find out more)",
        "address": "740 Cameron M. Alexander Blvd. NW",
        "phone": "470-756-5019",
        "website": "www.atlantapolicefoundation.org"
      }
    },
    {
      "type": "Feature",
      "geometry": {
        "type": "Point",
        "coordinates": [-84.412834, 33.773291],
      },
      "properties": {
        "name": "Bellwood Boys and Girls Club",
        "services": "Afterschool and youth development programming, summer and sports programs offered",
        "address": "777 Donald Lee Hollowell Pkwy. NW",
        "phone": "404-486-9551",
        "website": "www.salvationarmy.org"
      }
    },
    {
      "type": "Feature",
      "geometry": {
        "type": "Point",
        "coordinates": [-84.4218, 33.75359],
      },
      "properties": {
        "name": "American Explorers",
        "services": "",
        "address": "45 Whitehouse Dr. SW",
        "phone": "404-367-2061",
        "website": "www.americanexplorers.org"
      }
    },
    {
      "type": "Feature",
      "geometry": {
        "type": "Point",
        "coordinates": [-84.42462, 33.740603],
      },
      "properties": {
        "name": "We Cycle Atlanta",
        "services": "Youth development program where you earn W.H.E.E.L.S. (work ethic, health, economics, environment, and sustainability)",
        "address": "1124 Oak St. NW",
        "phone": "678-962-7660",
        "website": "www.wecycleatlanta.org"
      }
    },
    {
      "type": "Feature",
      "geometry": {
        "type": "Point",
        "coordinates": [-84.415895, 33.727834],
      },
      "properties": {
        "name": "Bearings Bike Shop",
        "services": "Youth development organization where kids in Atlanta can earn and maintain a bike",
        "address": "982 Murphy Ave. SW",
        "phone": "404-484-4180",
        "website": "www.bearingsbikeshop.com"
      }
    },
    {
      "type": "Feature",
      "geometry": {
        "type": "Point",
        "coordinates": [-84.421446, 33.756911],
      },
      "properties": {
        "name": "Camp Best Friends, Washington Park Natatorium",
        "services": "Summer swimming program (costs begin at $35)",
        "address": "102 Ollie St. NW",
        "url": "campbestfriends@atlantaga.gov"
      }
    },
    {
      "type": "Feature",
      "geometry": {
        "type": "Point",
        "coordinates": [-84.417171, 33.761871],
      },
      "properties": {
        "name": "Westside Works",
        "services": "Free job training programs available to metro-Atlanta area residents, with priority consideration to residents of the Westside of Atlanta",
        "address": "261 Joseph E. Lowery Blvd. NW",
        "phone": "404-458-6413",
        "website": "www.westsideworks.org"
      }
    },
    {
      "type": "Feature",
      "geometry": {
        "type": "Point",
        "coordinates": [-84.433649, 33.757806],
      },
      "properties": {
        "name": "Washington Park Library",
        "services": "Library/education programs, free computer/internet access",
        "address": "1116 MLK Jr. Dr. SW",
        "phone": "404-752-8760",
        "website": "www.afpls.org/washington-park-branch6"
      }
    }
  ]
}
